[
  { "city": "Bangkok", "country": "Tha\u00eflande", "lat": 13.7563, "lng": 100.5018, "dailyCost": 35, "currency": "EUR", "category": "budget" },
  { "city": "Hano\u00ef", "country": "Vietnam", "lat": 21.0285, "lng": 105.8542, "dailyCost": 30, "currency": "EUR", "category": "budget" },
  { "city": "Marrakech", "country": "Maroc", "lat": 31.6295, "lng": -7.9811, "dailyCost": 45, "currency": "EUR", "category": "budget" },
  { "city": "Istanbul", "country": "Turquie", "lat": 41.0082, "lng": 28.9784, "dailyCost": 50, "currency": "EUR", "category": "budget" },
  { "city": "Lisbonne", "country": "Portugal", "lat": 38.7223, "lng": -9.1393, "dailyCost": 65, "currency": "EUR", "category": "moderate" },
  { "city": "Budapest", "country": "Hongrie", "lat": 47.4979, "lng": 19.0402, "dailyCost": 55, "currency": "EUR", "category": "moderate" },
  { "city": "Prague", "country": "Tch\u00e9quie", "lat": 50.0755, "lng": 14.4378, "dailyCost": 60, "currency": "EUR", "category": "moderate" },
  { "city": "Ath\u00e8nes", "country": "Gr\u00e8ce", "lat": 37.9838, "lng": 23.7275, "dailyCost": 70, "currency": "EUR", "category": "moderate" },
  { "city": "Barcelone", "country": "Espagne", "lat": 41.3874, "lng": 2.1686, "dailyCost": 80, "currency": "EUR", "category": "moderate" },
  { "city": "Rome", "country": "Italie", "lat": 41.9028, "lng": 12.4964, "dailyCost": 85, "currency": "EUR", "category": "moderate" },
  { "city": "Berlin", "country": "Allemagne", "lat": 52.5200, "lng": 13.4050, "dailyCost": 75, "currency": "EUR", "category": "moderate" },
  { "city": "Amsterdam", "country": "Pays-Bas", "lat": 52.3676, "lng": 4.9041, "dailyCost": 90, "currency": "EUR", "category": "moderate" },
  { "city": "Paris", "country": "France", "lat": 48.8566, "lng": 2.3522, "dailyCost": 95, "currency": "EUR", "category": "premium" },
  { "city": "Londres", "country": "Royaume-Uni", "lat": 51.5074, "lng": -0.1278, "dailyCost": 110, "currency": "EUR", "category": "premium" },
  { "city": "Tokyo", "country": "Japon", "lat": 35.6762, "lng": 139.6503, "dailyCost": 100, "currency": "EUR", "category": "premium" },
  { "city": "New York", "country": "\u00c9tats-Unis", "lat": 40.7128, "lng": -74.0060, "dailyCost": 130, "currency": "EUR", "category": "premium" },
  { "city": "Sydney", "country": "Australie", "lat": -33.8688, "lng": 151.2093, "dailyCost": 120, "currency": "EUR", "category": "premium" },
  { "city": "Duba\u00ef", "country": "\u00c9mirats", "lat": 25.2048, "lng": 55.2708, "dailyCost": 115, "currency": "EUR", "category": "premium" },
  { "city": "Bali", "country": "Indon\u00e9sie", "lat": -8.3405, "lng": 115.0920, "dailyCost": 40, "currency": "EUR", "category": "budget" },
  { "city": "Mexico City", "country": "Mexique", "lat": 19.4326, "lng": -99.1332, "dailyCost": 45, "currency": "EUR", "category": "budget" },
  { "city": "Le Caire", "country": "\u00c9gypte", "lat": 30.0444, "lng": 31.2357, "dailyCost": 35, "currency": "EUR", "category": "budget" },
  { "city": "Cracovie", "country": "Pologne", "lat": 50.0647, "lng": 19.9450, "dailyCost": 45, "currency": "EUR", "category": "budget" },
  { "city": "S\u00e9ville", "country": "Espagne", "lat": 37.3891, "lng": -5.9845, "dailyCost": 70, "currency": "EUR", "category": "moderate" },
  { "city": "Dublin", "country": "Irlande", "lat": 53.3498, "lng": -6.2603, "dailyCost": 95, "currency": "EUR", "category": "premium" },
  { "city": "Copenhague", "country": "Danemark", "lat": 55.6761, "lng": 12.5683, "dailyCost": 110, "currency": "EUR", "category": "premium" },
  { "city": "Reykjavik", "country": "Islande", "lat": 64.1466, "lng": -21.9426, "dailyCost": 140, "currency": "EUR", "category": "premium" },
  { "city": "S\u00e9oul", "country": "Cor\u00e9e du Sud", "lat": 37.5665, "lng": 126.9780, "dailyCost": 80, "currency": "EUR", "category": "moderate" },
  { "city": "Buenos Aires", "country": "Argentine", "lat": -34.6037, "lng": -58.3816, "dailyCost": 50, "currency": "EUR", "category": "budget" },
  { "city": "Kyoto", "country": "Japon", "lat": 35.0116, "lng": 135.7681, "dailyCost": 95, "currency": "EUR", "category": "premium" },
  { "city": "Singapour", "country": "Singapour", "lat": 1.3521, "lng": 103.8198, "dailyCost": 105, "currency": "EUR", "category": "premium" }
]
